{
  "date": "tisdag, 9e april",
  "restaurants": [
    {
      "id": "9",
      "name": "Restaurang KP",
      "emoji": "üìÆ",
      "description": "Lunchbuff√© med k√∂tt, fisk och veg att v√§lja mellan.",
      "position": {
        "lat": "55.60994",
        "long": "12.99862"
      },
      "address": {
        "street": "Posthusplatsen 4",
        "postCode": "21120",
        "city": "MALM√ñ"
      },
      "distance": "0.3",
      "checkDay": "2",
      "menuItems": [
        {
          "dish": "Gul currygryta, kyckling, kokosmj√∂lk, paprika, ris"
        },
        {
          "dish": "Pocherad torsk, rostad paprika, haricot verts, potatispur√©"
        },
        {
          "dish": "Vegetarisk spenatpaj, gr√∂nsallad, dragondressing"
        }
      ]
    },
    {
      "id": "1",
      "name": "Kolgas",
      "emoji": "üöö",
      "description": "\"Gedigen\" svensk husmanskost.",
      "position": {
        "lat": "55.61277",
        "long": "12.99843"
      },
      "address": {
        "street": "Hans Michelsensgatan 1C",
        "postCode": "21120",
        "city": "MALM√ñ"
      },
      "distance": "0.08",
      "checkDay": "2",
      "menuItems": [
        {
          "dish": "Stekt Sill med potatismos, gr√∂nsaker och lingon"
        },
        {
          "dish": "Stekt Kassler med svamps√•s, potatis och gr√∂nsaker"
        }
      ]
    },
    {
      "id": "8",
      "name": "V√§lf√§rden",
      "emoji": "ü•¶",
      "description": "Sk√•nska r√•varor, spexiga r√§tter, alltid vegetariska alternativ",
      "position": {
        "lat": "55.61129",
        "long": "12.99416"
      },
      "address": {
        "street": "Anckargripsgatan 3",
        "postCode": "21119",
        "city": "MALM√ñ"
      },
      "distance": "0.4",
      "checkDay": "2",
      "menuItems": [
        {
          "dish": "Tofustroganoff med kr√§mig tomats√•s, vitl√∂kschampinjoner & √∂rtris samt √§ppelsallad med rostad mandel"
        },
        {
          "dish": "Ugnsgrillad sej med nouc cham, mustig fiskbuljong med gr√∂n curry & glasnudlar, f√§rsk spenat, b√∂ngroddar & lime"
        }
      ]
    },
    {
      "id": "6",
      "name": "Niagara",
      "emoji": "üç±",
      "description": "Erbjuder b√•de lokalproducerad husman och asiatiskt.",
      "position": {
        "lat": "55.60881",
        "long": "12.99410"
      },
      "address": {
        "street": "Neptuniplan 1",
        "postCode": "21118",
        "city": "MALM√ñ"
      },
      "distance": "0.5",
      "checkDay": "2",
      "menuItems": [
        {
          "dish": "Potatisbullar, smetana, brynt l√∂k, bakad k√•l, gr√§sl√∂k (G, L)"
        },
        {
          "dish": "Kik√§rtsbiff, tabbouleh, yoghurt, picklad l√∂k, krispig topping (G, L)"
        },
        {
          "dish": "Tandoori kyckling, brynt l√∂k, rostad tomat, yoghurt, ris (L)"
        },
        {
          "dish": "Cous cous, halloumi, tzatziki, oliver, kik√§rtor, marinerade gr√∂nsaker (G, L)"
        },
        {
          "dish": "Stekt panerad sp√§tta, remoulade, potatis, f√§nk√•l, dill (G)"
        },
        {
          "dish": "Stekt polenta, rostad paprika cr√©me, zucchini, morotssallad"
        }
      ]
    },
    {
      "id": "7",
      "name": "Saltimporten",
      "emoji": "üçù",
      "description": "Lokalproducerat, lite fancy.",
      "position": {
        "lat": "55.61588",
        "long": "12.99733"
      },
      "address": {
        "street": "Grimsbygatan 24",
        "postCode": "21120",
        "city": "MALM√ñ"
      },
      "distance": "0.4",
      "checkDay": "2",
      "menuItems": [
        {
          "dish": "Oxe / Broccoli / Solrosfr√∂ / Spenat"
        },
        {
          "dish": "F√§nk√•l / Blodgrape / Apelsin / Pistage"
        }
      ]
    },
    {
      "id": "2",
      "name": "Slagthuset",
      "emoji": "üçñ",
      "description": "Modern och n√§rproducerad husmanskost.",
      "position": {
        "lat": "55.61133",
        "long": "13.00281"
      },
      "address": {
        "street": "Carlsgatan 12E",
        "postCode": "21120",
        "city": "MALM√ñ"
      },
      "distance": "0.2",
      "checkDay": "2",
      "menuItems": [
        {
          "dish": "Bbq-bakad Sk√•nsk gris i briochebr√∂d med chilimajo, syrad l√∂k & het klyftad potatis ."
        },
        {
          "dish": "Asiatiska fishcakes med papaya & morotssallad, chili, vitl√∂k soja & koriander."
        },
        {
          "dish": "Kr√§mig svamprisotto med dragon & parmesan."
        }
      ]
    },
    {
      "id": "3",
      "name": "In The Pink",
      "emoji": "üç≤",
      "description": "Soppor och hotpots, ekologiskt och vegetariskt.",
      "position": {
        "lat": "55.61018",
        "long": "13.00015"
      },
      "address": {
        "street": "R√§lsplatsen 3",
        "postCode": "21120",
        "city": "MALM√ñ"
      },
      "distance": "0.2",
      "checkDay": "2",
      "menuItems": [
        {
          "dish": "Rotsellerisoppa med champinjoner, havregr√§dde, rapsolja och tryffelolja. Serveras med ett n√∂t- och fr√∂br√∂d med kirsk√•lspesto (vegan)"
        },
        {
          "dish": "Tunisisk h√∂grevsgryta med harissapesto, l√∂k, squash, mor√∂tter, stekt vitk√•l och mynta (Paleo)"
        }
      ]
    },
    {
      "id": "4",
      "name": "Glasklart",
      "emoji": "ü•ó",
      "description": "Vanlig husmanskost.",
      "position": {
        "lat": "55.61525",
        "long": "12.99042"
      },
      "address": {
        "street": "Dockplatsen 1",
        "postCode": "21119",
        "city": "MALM√ñ"
      },
      "distance": "0.7",
      "checkDay": "2",
      "menuItems": [
        {
          "dish": "Klassisk wallenbergare med gr√∂na √§rtor, potatispur√©, lingon och skirat sm√∂r"
        },
        {
          "dish": "Chilirostad halloumiburgare med friterad potatis, tryffelmajo & coleslaw"
        }
      ]
    },
    {
      "id": "5",
      "name": "MiaMarias",
      "emoji": "ü•ò",
      "description": "Alltid tre r√§tter att v√§lja mellan: fisk, k√∂tt, veg.",
      "position": {
        "lat": "55.61355",
        "long": "12.99189"
      },
      "address": {
        "street": "Isbergs gata 7",
        "postCode": "21119",
        "city": "MALM√ñ"
      },
      "distance": "0.5",
      "checkDay": "2",
      "menuItems": [
        {
          "dish": "Panerad sej med bakad spetsk√•l, purjol√∂k och dill. Saffranscreme fraiche."
        },
        {
          "dish": "Biff a la Lindstr√∂m med persiljesm√∂r, klyftpotatis, rostade rotfrukter och skys√•s."
        },
        {
          "dish": "Polentabiff med tryffelsmakande squashsallad, sparris och pinjen√∂tter."
        }
      ]
    }
  ]
}